{
  "^GSPC": {
    "symbol": "^GSPC",
    "name": "S&P 500",
    "exchange": "NYSE",
    "city": "New York",
    "country": "United States",
    "region": "North America",
    "timezone": "America/New_York",
    "lat": 40.7128,
    "lng": -74.0060
  },
  "^NSEI": {
    "symbol": "^NSEI",
    "name": "NIFTY 50",
    "exchange": "NSE",
    "city": "Mumbai",
    "country": "India",
    "region": "Asia",
    "timezone": "Asia/Kolkata",
    "lat": 19.0760,
    "lng": 72.8777
  },
  "^BSESN": {
    "symbol": "^BSESN",
    "name": "BSE SENSEX",
    "exchange": "BSE",
    "city": "Mumbai",
    "country": "India",
    "region": "Asia",
    "timezone": "Asia/Kolkata",
    "lat": 19.0760,
    "lng": 72.8777
  },
  "^N225": {
    "symbol": "^N225",
    "name": "Nikkei 225",
    "exchange": "TSE",
    "city": "Tokyo",
    "country": "Japan",
    "region": "Asia",
    "timezone": "Asia/Tokyo",
    "lat": 35.6762,
    "lng": 139.6503
  },
  "^TOPX": {
    "symbol": "^TOPX",
    "name": "TOPIX",
    "exchange": "TSE",
    "city": "Tokyo",
    "country": "Japan",
    "region": "Asia",
    "timezone": "Asia/Tokyo",
    "lat": 35.6762,
    "lng": 139.6503
  },
  "000001.SS": {
    "symbol": "000001.SS",
    "name": "SSE Composite Index",
    "exchange": "SSE",
    "city": "Shanghai",
    "country": "China",
    "region": "Asia",
    "timezone": "Asia/Shanghai",
    "lat": 31.2304,
    "lng": 121.4737
  },
  "399001.SZ": {
    "symbol": "399001.SZ",
    "name": "SZSE Component Index",
    "exchange": "SZSE",
    "city": "Shenzhen",
    "country": "China",
    "region": "Asia",
    "timezone": "Asia/Shanghai",
    "lat": 22.5431,
    "lng": 114.0579
  },
  "^HSI": {
    "symbol": "^HSI",
    "name": "Hang Seng Index",
    "exchange": "HKEX",
    "city": "Hong Kong",
    "country": "Hong Kong",
    "region": "Asia",
    "timezone": "Asia/Hong_Kong",
    "lat": 22.3193,
    "lng": 114.1694
  },
  "^FTSE": {
    "symbol": "^FTSE",
    "name": "FTSE 100",
    "exchange": "LSE",
    "city": "London",
    "country": "United Kingdom",
    "region": "Europe",
    "timezone": "Europe/London",
    "lat": 51.5074,
    "lng": -0.1278
  },
  "^GDAXI": {
    "symbol": "^GDAXI",
    "name": "DAX",
    "exchange": "XETRA",
    "city": "Frankfurt",
    "country": "Germany",
    "region": "Europe",
    "timezone": "Europe/Berlin",
    "lat": 50.1109,
    "lng": 8.6821
  },
  "^FCHI": {
    "symbol": "^FCHI",
    "name": "CAC 40",
    "exchange": "EPA",
    "city": "Paris",
    "country": "France",
    "region": "Europe",
    "timezone": "Europe/Paris",
    "lat": 48.8566,
    "lng": 2.3522
  },
  "^STOXX50E": {
    "symbol": "^STOXX50E",
    "name": "EURO STOXX 50",
    "exchange": "STOXX",
    "city": "Zurich",
    "country": "Switzerland",
    "region": "Europe",
    "timezone": "Europe/Zurich",
    "lat": 47.3769,
    "lng": 8.5417
  },
  "^AXJO": {
    "symbol": "^AXJO",
    "name": "S&P/ASX 200",
    "exchange": "ASX",
    "city": "Sydney",
    "country": "Australia",
    "region": "Oceania",
    "timezone": "Australia/Sydney",
    "lat": -33.8688,
    "lng": 151.2093
  },
  "^GSPTSE": {
    "symbol": "^GSPTSE",
    "name": "S&P/TSX Composite",
    "exchange": "TSX",
    "city": "Toronto",
    "country": "Canada",
    "region": "North America",
    "timezone": "America/Toronto",
    "lat": 43.6532,
    "lng": -79.3832
  },
  "^BVSP": {
    "symbol": "^BVSP",
    "name": "IBOVESPA",
    "exchange": "B3",
    "city": "SÃ£o Paulo",
    "country": "Brazil",
    "region": "South America",
    "timezone": "America/Sao_Paulo",
    "lat": -23.5505,
    "lng": -46.6333
  },
  "^MXX": {
    "symbol": "^MXX",
    "name": "IPC Mexico",
    "exchange": "BMV",
    "city": "Mexico City",
    "country": "Mexico",
    "region": "North America",
    "timezone": "America/Mexico_City",
    "lat": 19.4326,
    "lng": -99.1332
  },
  "^KS11": {
    "symbol": "^KS11",
    "name": "KOSPI",
    "exchange": "KRX",
    "city": "Seoul",
    "country": "South Korea",
    "region": "Asia",
    "timezone": "Asia/Seoul",
    "lat": 37.5665,
    "lng": 126.9780
  },
  "^TWII": {
    "symbol": "^TWII",
    "name": "Taiwan Weighted",
    "exchange": "TWSE",
    "city": "Taipei",
    "country": "Taiwan",
    "region": "Asia",
    "timezone": "Asia/Taipei",
    "lat": 25.0330,
    "lng": 121.5654
  },
  "^JKSE": {
    "symbol": "^JKSE",
    "name": "Jakarta Composite",
    "exchange": "IDX",
    "city": "Jakarta",
    "country": "Indonesia",
    "region": "Asia",
    "timezone": "Asia/Jakarta",
    "lat": -6.2088,
    "lng": 106.8456
  },
  "^KLSE": {
    "symbol": "^KLSE",
    "name": "FTSE Bursa Malaysia KLCI",
    "exchange": "BM",
    "city": "Kuala Lumpur",
    "country": "Malaysia",
    "region": "Asia",
    "timezone": "Asia/Kuala_Lumpur",
    "lat": 3.1390,
    "lng": 101.6869
  },
  "^STI": {
    "symbol": "^STI",
    "name": "Straits Times Index",
    "exchange": "SGX",
    "city": "Singapore",
    "country": "Singapore",
    "region": "Asia",
    "timezone": "Asia/Singapore",
    "lat": 1.3521,
    "lng": 103.8198
  },
  "^SET.BK": {
    "symbol": "^SET.BK",
    "name": "SET Index",
    "exchange": "SET",
    "city": "Bangkok",
    "country": "Thailand",
    "region": "Asia",
    "timezone": "Asia/Bangkok",
    "lat": 13.7563,
    "lng": 100.5018
  },
  "^VN30": {
    "symbol": "^VN30",
    "name": "VN30 Index",
    "exchange": "HOSE",
    "city": "Ho Chi Minh City",
    "country": "Vietnam",
    "region": "Asia",
    "timezone": "Asia/Ho_Chi_Minh",
    "lat": 10.8231,
    "lng": 106.6297
  },
  "^MERV": {
    "symbol": "^MERV",
    "name": "MERVAL",
    "exchange": "BCBA",
    "city": "Buenos Aires",
    "country": "Argentina",
    "region": "South America",
    "timezone": "America/Argentina/Buenos_Aires",
    "lat": -34.6118,
    "lng": -58.3960
  },
  "^IPSA": {
    "symbol": "^IPSA",
    "name": "S&P/CLX IPSA",
    "exchange": "SCL",
    "city": "Santiago",
    "country": "Chile",
    "region": "South America",
    "timezone": "America/Santiago",
    "lat": -33.4489,
    "lng": -70.6693
  },
  "^TA125.TA": {
    "symbol": "^TA125.TA",
    "name": "TA-125",
    "exchange": "TASE",
    "city": "Tel Aviv",
    "country": "Israel",
    "region": "Middle East",
    "timezone": "Asia/Jerusalem",
    "lat": 32.0853,
    "lng": 34.7818
  },
  "^CASE30": {
    "symbol": "^CASE30",
    "name": "EGX 30",
    "exchange": "EGX",
    "city": "Cairo",
    "country": "Egypt",
    "region": "Africa",
    "timezone": "Africa/Cairo",
    "lat": 30.0444,
    "lng": 31.2357
  },
  "^J203.JO": {
    "symbol": "^J203.JO",
    "name": "JSE All Share",
    "exchange": "JSE",
    "city": "Johannesburg",
    "country": "South Africa",
    "region": "Africa",
    "timezone": "Africa/Johannesburg",
    "lat": -26.2041,
    "lng": 28.0473
  },
  "^RTS.RS": {
    "symbol": "^RTS.RS",
    "name": "RTS Index",
    "exchange": "MOEX",
    "city": "Moscow",
    "country": "Russia",
    "region": "Europe",
    "timezone": "Europe/Moscow",
    "lat": 55.7558,
    "lng": 37.6176
  }
}